{
    "err": 0,
    "msg": "",
    "data": [{
        "name": "厦门旅游集散服务中心(厦鼓邮轮码头服务点)",
        "address": "福建省厦门市湖里区厦门旅游集散服务中心（厦鼓邮轮码头服务点）",
        "status": 1,
        "coordinate": "24.498904,118.204279",
        "telephone": "0592-8887800",
        "type": "旅游景点,其它旅游景点",
        "hours": "08:30-16:30",
        "periphery": "鼓浪屿",
        "service": "免费充电、免费医疗包"
    },{
       "name": "厦门旅游集散服务中心(厦鼓邮轮码头服务点)",
        "address": "福建省厦门市湖里区厦门旅游集散服务中心（厦鼓邮轮码头服务点）",
        "status": 1,
        "coordinate": "24.498904,118.204279",
        "telephone": "0592-8887800",
        "type": "旅游景点,其它旅游景点",
        "hours": "08:30-16:30",
        "periphery": "鼓浪屿",
        "service": "免费充电、免费医疗包"
    },{
        "name": "厦门旅游集散服务中心(厦鼓邮轮码头服务点)",
        "address": "福建省厦门市湖里区厦门旅游集散服务中心（厦鼓邮轮码头服务点）",
        "status": 1,
        "coordinate": "24.498904,118.204279",
        "telephone": "0592-8887800",
        "type": "旅游景点,其它旅游景点",
        "hours": "08:30-16:30",
        "periphery": "鼓浪屿",
        "service": "免费充电、免费医疗包"
    },{
    	"name": "厦门旅游集散服务中心(厦鼓邮轮码头服务点)",
    	"address": "福建省厦门市湖里区厦门旅游集散服务中心（厦鼓邮轮码头服务点）",
    	"status": 1,
    	"coordinate": "24.498904,118.204279",
    	"telephone": "0592-8887800",
    	"type": "旅游景点,其它旅游景点",
    	"hours": "08:30-16:30",
    	"periphery": "鼓浪屿",
    	"service": "免费充电、免费医疗包"
    }] 
}